{"type":"FeatureCollection","crs":{"type":"name","properties":{"name":"urn:ogc:def:crs:OGC:1.3:CRS84"}},"features":[{"type":"Feature","properties":{"SITE":"TitahiBay","particles_per_kg":47,"total_particles":40,"polyester":34,"polyethylene":0,"acrylic":4,"polypropylene":0,"polystyrene":0,"unknown":"0","fibre":35,"fragment":3,"film":0,"other":"1","blue":25,"clear":7,"black":3,"yellow":0,"orange":3,"white":0,"red":1,"green":0,"pink":"0"},"geometry":{"type":"Point","coordinates":[174.835281,-41.106311]}},{"type":"Feature","properties":{"SITE":"Kaiaua","particles_per_kg":27,"total_particles":30,"polyester":18,"polyethylene":0,"acrylic":11,"polypropylene":0,"polystyrene":0,"unknown":"1","fibre":19,"fragment":7,"film":1,"other":"2","blue":5,"clear":1,"black":2,"yellow":7,"orange":6,"white":8,"red":1,"green":0,"pink":"0"},"geometry":{"type":"Point","coordinates":[174.8615,-41.0982]}},{"type":"Feature","properties":{"SITE":"TeNeke","particles_per_kg":16,"total_particles":11,"polyester":1,"polyethylene":2,"acrylic":5,"polypropylene":2,"polystyrene":0,"unknown":"0","fibre":0,"fragment":10,"film":0,"other":"1","blue":0,"clear":3,"black":0,"yellow":0,"orange":3,"white":0,"red":0,"green":4,"pink":"1"},"geometry":{"type":"Point","coordinates":[174.86162,-41.09835]}},{"type":"Feature","properties":{"SITE":"Tangare/TeHikoStreet","particles_per_kg":13,"total_particles":11,"polyester":6,"polyethylene":2,"acrylic":1,"polypropylene":0,"polystyrene":1,"unknown":"0","fibre":5,"fragment":6,"film":0,"other":"0","blue":2,"clear":3,"black":3,"yellow":0,"orange":1,"white":1,"red":0,"green":1,"pink":"0"},"geometry":{"type":"Point","coordinates":[174.837311,-41.124139]}},{"type":"Feature","properties":{"SITE":"TeOnepoto","particles_per_kg":8,"total_particles":5,"polyester":2,"polyethylene":2,"acrylic":1,"polypropylene":0,"polystyrene":0,"unknown":"0","fibre":2,"fragment":3,"film":0,"other":"0","blue":1,"clear":2,"black":1,"yellow":1,"orange":0,"white":0,"red":0,"green":0,"pink":"0"},"geometry":{"type":"Point","coordinates":[174.85647,-41.108039]}},{"type":"Feature","properties":{"SITE":"Paremata","particles_per_kg":5,"total_particles":1,"polyester":1,"polyethylene":0,"acrylic":0,"polypropylene":0,"polystyrene":0,"unknown":"NA","fibre":1,"fragment":0,"film":0,"other":"NA","blue":0,"clear":0,"black":1,"yellow":0,"orange":0,"white":0,"red":0,"green":0,"pink":"NA"},"geometry":{"type":"Point","coordinates":[174.8646,-41.1049]}},{"type":"Feature","properties":{"SITE":"Motukaraka","particles_per_kg":2,"total_particles":1,"polyester":1,"polyethylene":0,"acrylic":0,"polypropylene":0,"polystyrene":0,"unknown":"0","fibre":1,"fragment":0,"film":0,"other":"0","blue":0,"clear":0,"black":0,"yellow":0,"orange":0,"white":0,"red":1,"green":0,"pink":"0"},"geometry":{"type":"Point","coordinates":[174.899261,-41.09155]}}]}